{"type": "FeatureCollection", "features": [{"type": "Feature", "geometry": {"type": "Point", "coordinates": [1.57842, 42.533]}, "properties": {"name": "Bus Stop", "lines": "", "network": "", "operator": ""}}, {"type": "Feature", "geometry": {"type": "Point", "coordinates": [1.52805, 42.50732]}, "properties": {"name": "Bus Stop", "lines": "", "network": "", "operator": ""}}, {"type": "Feature", "geometry": {"type": "Point", "coordinates": [1.47978, 42.57719]}, "properties": {"name": "Bus Stop", "lines": "", "network": "", "operator": ""}}, {"type": "Feature", "geometry": {"type": "Point", "coordinates": [1.64972, 42.57941]}, "properties": {"name": "152 El Tarter", "lines": "", "network": "L4", "operator": "Cooperativa Interurbana Andorrana"}}, {"type": "Feature", "geometry": {"type": "Point", "coordinates": [1.64935, 42.57949]}, "properties": {"name": "151 El Tarter", "lines": "", "network": "L4", "operator": "Cooperativa Interurbana Andorrana"}}, {"type": "Feature", "geometry": {"type": "Point", "coordinates": [1.49026, 42.47663]}, "properties": {"name": "Bus Stop", "lines": "", "network": "", "operator": ""}}, {"type": "Feature", "geometry": {"type": "Point", "coordinates": [1.66696, 42.57679]}, "properties": {"name": "171 Soldeu", "lines": "", "network": "L4", "operator": "Cooperativa Interurbana Andorrana"}}, {"type": "Feature", "geometry": {"type": "Point", "coordinates": [1.73399, 42.54356]}, "properties": {"name": "201 L'Esgl\u00e9sia", "lines": "", "network": "", "operator": ""}}, {"type": "Feature", "geometry": {"type": "Point", "coordinates": [1.51274, 42.54863]}, "properties": {"name": "Busstop, Freebus", "lines": "", "network": "", "operator": "Vall Nord"}}, {"type": "Feature", "geometry": {"type": "Point", "coordinates": [1.51267, 42.54901]}, "properties": {"name": "Busstop, Freebus", "lines": "", "network": "", "operator": ""}}, {"type": "Feature", "geometry": {"type": "Point", "coordinates": [1.53706, 42.50927]}, "properties": {"name": "Arnaldeta de Caboet", "lines": "", "network": "Els Vilars", "operator": "EE BUS"}}, {"type": "Feature", "geometry": {"type": "Point", "coordinates": [1.51953, 42.53321]}, "properties": {"name": "Bus Stop", "lines": "", "network": "", "operator": ""}}, {"type": "Feature", "geometry": {"type": "Point", "coordinates": [1.51981, 42.53773]}, "properties": {"name": "Bus Stop", "lines": "", "network": "", "operator": ""}}, {"type": "Feature", "geometry": {"type": "Point", "coordinates": [1.49276, 42.46716]}, "properties": {"name": "Bus Stop", "lines": "", "network": "", "operator": "Novatel"}}, {"type": "Feature", "geometry": {"type": "Point", "coordinates": [1.55964, 42.5221]}, "properties": {"name": "224 Prat de la Bartra", "lines": "", "network": "L2, L4", "operator": ""}}, {"type": "Feature", "geometry": {"type": "Point", "coordinates": [1.53853, 42.61043]}, "properties": {"name": "358 Les Salines", "lines": "", "network": "L6", "operator": ""}}, {"type": "Feature", "geometry": {"type": "Point", "coordinates": [1.6634, 42.58389]}, "properties": {"name": "164 Val d'Incles", "lines": "", "network": "L4", "operator": "Cooperativa Interurbana Andorrana"}}, {"type": "Feature", "geometry": {"type": "Point", "coordinates": [1.65928, 42.57983]}, "properties": {"name": "162 Moles", "lines": "", "network": "L4", "operator": "Cooperativa Interurbana Andorrana"}}, {"type": "Feature", "geometry": {"type": "Point", "coordinates": [1.48767, 42.45797]}, "properties": {"name": "607 Riu d'Aubiny\u00e0", "lines": "", "network": "L1", "operator": ""}}, {"type": "Feature", "geometry": {"type": "Point", "coordinates": [1.59914, 42.53019]}, "properties": {"name": "les Pardines", "lines": "", "network": "", "operator": ""}}, {"type": "Feature", "geometry": {"type": "Point", "coordinates": [1.68517, 42.56007]}, "properties": {"name": "182 Bordes d'Envalira", "lines": "", "network": "L4", "operator": "Cooperativa Interurbana Andorrana"}}, {"type": "Feature", "geometry": {"type": "Point", "coordinates": [1.68504, 42.56004]}, "properties": {"name": "181 Bordes d'Envalira", "lines": "", "network": "L4", "operator": "Cooperativa Interurbana Andorrana"}}, {"type": "Feature", "geometry": {"type": "Point", "coordinates": [1.67979, 42.56426]}, "properties": {"name": "175 Peretol", "lines": "", "network": "L4", "operator": "Cooperativa Interurbana Andorrana"}}, {"type": "Feature", "geometry": {"type": "Point", "coordinates": [1.66645, 42.57705]}, "properties": {"name": "172 Soldeu", "lines": "", "network": "L4", "operator": "Cooperativa Interurbana Andorrana"}}, {"type": "Feature", "geometry": {"type": "Point", "coordinates": [1.66413, 42.5802]}, "properties": {"name": "166 Roc de Sant Miquel", "lines": "", "network": "L4", "operator": "Cooperativa Interurbana Andorrana"}}, {"type": "Feature", "geometry": {"type": "Point", "coordinates": [1.66265, 42.58269]}, "properties": {"name": "163 Val d'Incles", "lines": "", "network": "L4", "operator": ""}}, {"type": "Feature", "geometry": {"type": "Point", "coordinates": [1.64576, 42.58002]}, "properties": {"name": "146 Cru\u00eflla de Ransol", "lines": "", "network": "L4", "operator": "Cooperativa Interurbana Andorrana"}}, {"type": "Feature", "geometry": {"type": "Point", "coordinates": [1.64284, 42.5795]}, "properties": {"name": "143 La Costa", "lines": "", "network": "L4", "operator": "Cooperativa Interurbana Andorrana"}}, {"type": "Feature", "geometry": {"type": "Point", "coordinates": [1.62873, 42.57771]}, "properties": {"name": "131 La Creu de l'Aldosa", "lines": "", "network": "L4", "operator": ""}}, {"type": "Feature", "geometry": {"type": "Point", "coordinates": [1.60698, 42.57083]}, "properties": {"name": "119 St. Joan de Caselles", "lines": "", "network": "L4", "operator": "Cooperativa Interurbana Andorrana"}}, {"type": "Feature", "geometry": {"type": "Point", "coordinates": [1.60484, 42.56971]}, "properties": {"name": "117 Aina", "lines": "", "network": "L4", "operator": "Cooperativa Interurbana Andorrana"}}, {"type": "Feature", "geometry": {"type": "Point", "coordinates": [1.60472, 42.56987]}, "properties": {"name": "118 Aina", "lines": "", "network": "L4", "operator": "Cooperativa Interurbana Andorrana"}}, {"type": "Feature", "geometry": {"type": "Point", "coordinates": [1.60184, 42.56758]}, "properties": {"name": "115 El Mol\u00ed", "lines": "", "network": "L4", "operator": "Cooperativa Interurbana Andorrana"}}, {"type": "Feature", "geometry": {"type": "Point", "coordinates": [1.6007, 42.56709]}, "properties": {"name": "114 Pl. de l'Areny", "lines": "", "network": "L4", "operator": "Cooperativa Interurbana Andorrana"}}, {"type": "Feature", "geometry": {"type": "Point", "coordinates": [1.59764, 42.5658]}, "properties": {"name": "111 Palau de Gel", "lines": "", "network": "L4", "operator": "Cooperativa Interurbana Andorrana"}}, {"type": "Feature", "geometry": {"type": "Point", "coordinates": [1.59771, 42.56597]}, "properties": {"name": "112 Palau de Gel", "lines": "", "network": "L4", "operator": "Cooperativa Interurbana Andorrana"}}, {"type": "Feature", "geometry": {"type": "Point", "coordinates": [1.59117, 42.55094]}, "properties": {"name": "101 Meritxell", "lines": "", "network": "L4", "operator": "Cooperativa Interurbana Andorrana"}}, {"type": "Feature", "geometry": {"type": "Point", "coordinates": [1.58863, 42.53569]}, "properties": {"name": "259 Cru\u00eflla dels Cortals", "lines": "", "network": "", "operator": "Cooperativa Interurbana Andorrana"}}, {"type": "Feature", "geometry": {"type": "Point", "coordinates": [1.58545, 42.53535]}, "properties": {"name": "209 Els Pastoressos", "lines": "", "network": "L2, L4", "operator": "Cooperativa Interurbana Andorrana"}}, {"type": "Feature", "geometry": {"type": "Point", "coordinates": [1.58534, 42.53575]}, "properties": {"name": "210 Els Pastoressos", "lines": "", "network": "L2, L4", "operator": "Cooperativa Interurbana Andorrana"}}, {"type": "Feature", "geometry": {"type": "Point", "coordinates": [1.58353, 42.53687]}, "properties": {"name": "211 Com\u00fa d'Encamp", "lines": "", "network": "L2, L4", "operator": "Cooperativa Interurbana Andorrana"}}, {"type": "Feature", "geometry": {"type": "Point", "coordinates": [1.58123, 42.53506]}, "properties": {"name": "202 Pl. del Consell", "lines": "", "network": "L2, L4", "operator": "Cooperativa Interurbana Andorrana"}}, {"type": "Feature", "geometry": {"type": "Point", "coordinates": [1.58082, 42.5343]}, "properties": {"name": "203 Prat de Genil", "lines": "", "network": "L2, L4", "operator": "Cooperativa Interurbana Andorrana"}}, {"type": "Feature", "geometry": {"type": "Point", "coordinates": [1.57842, 42.53305]}, "properties": {"name": "206 La Molina", "lines": "", "network": "L2, L4", "operator": "Cooperativa Interurbana Andorrana"}}, {"type": "Feature", "geometry": {"type": "Point", "coordinates": [1.57847, 42.53298]}, "properties": {"name": "205 La Molina", "lines": "", "network": "L2, L4", "operator": "Cooperativa Interurbana Andorrana"}}, {"type": "Feature", "geometry": {"type": "Point", "coordinates": [1.57391, 42.53216]}, "properties": {"name": "208 Riu Blanc", "lines": "", "network": "L2, L4", "operator": "Cooperativa Interurbana Andorrana"}}, {"type": "Feature", "geometry": {"type": "Point", "coordinates": [1.57364, 42.53184]}, "properties": {"name": "207 Riu Blanc", "lines": "", "network": "L2, L4", "operator": "Cooperativa Interurbana Andorrana"}}, {"type": "Feature", "geometry": {"type": "Point", "coordinates": [1.55038, 42.5121]}, "properties": {"name": "Cru\u00eflla d'Engolasters", "lines": "", "network": "L2, Engolasters", "operator": "Nacional;EE BUS"}}, {"type": "Feature", "geometry": {"type": "Point", "coordinates": [1.55021, 42.51217]}, "properties": {"name": "Cru\u00eflla d'Engolasters", "lines": "", "network": "L2,", "operator": "Cooperativa Interurbana Andorrana"}}, {"type": "Feature", "geometry": {"type": "Point", "coordinates": [1.54849, 42.51089]}, "properties": {"name": "Coll de Caldes", "lines": "", "network": "Engolasters, L3, L4, L6", "operator": "EE BUS"}}, {"type": "Feature", "geometry": {"type": "Point", "coordinates": [1.5453, 42.50948]}, "properties": {"name": "La Tosca", "lines": "", "network": "L2", "operator": "Transports de Govern"}}, {"type": "Feature", "geometry": {"type": "Point", "coordinates": [1.54546, 42.50943]}, "properties": {"name": "741 La Tosca", "lines": "", "network": "L2, L4", "operator": "Cooperativa Interurbana Andorrana"}}, {"type": "Feature", "geometry": {"type": "Point", "coordinates": [1.55177, 42.50814]}, "properties": {"name": "Urb. La Solana", "lines": "", "network": "Engolasters", "operator": "EE BUS"}}, {"type": "Feature", "geometry": {"type": "Point", "coordinates": [1.55185, 42.50815]}, "properties": {"name": "Urb. La Solana", "lines": "", "network": "Engolasters", "operator": "EE BUS"}}, {"type": "Feature", "geometry": {"type": "Point", "coordinates": [1.55961, 42.51193]}, "properties": {"name": "Urb. St. Miquel d'Engolasters", "lines": "", "network": "Engolasters", "operator": "EE BUS"}}, {"type": "Feature", "geometry": {"type": "Point", "coordinates": [1.5597, 42.50991]}, "properties": {"name": "Ermita St. Miquel", "lines": "", "network": "Engolasters", "operator": "EE BUS"}}, {"type": "Feature", "geometry": {"type": "Point", "coordinates": [1.54751, 42.50561]}, "properties": {"name": "Cemintiri de La PLana", "lines": "", "network": "Engolasters", "operator": "EE BUs"}}, {"type": "Feature", "geometry": {"type": "Point", "coordinates": [1.53983, 42.50455]}, "properties": {"name": "Urb. La Plana", "lines": "", "network": "Engolasters", "operator": "EE BUS"}}, {"type": "Feature", "geometry": {"type": "Point", "coordinates": [1.54249, 42.50885]}, "properties": {"name": "Pl. Sta. Anna", "lines": "", "network": "L2;Engolasters", "operator": "Nacional;EE BUS"}}, {"type": "Feature", "geometry": {"type": "Point", "coordinates": [1.54259, 42.50895]}, "properties": {"name": "Pl. Sta. Anna", "lines": "", "network": "L2", "operator": "Nacional"}}, {"type": "Feature", "geometry": {"type": "Point", "coordinates": [1.49144, 42.48463]}, "properties": {"name": "5310 Rotonda de la Margineda", "lines": "", "network": "L1, Expr\u00e9s", "operator": ""}}, {"type": "Feature", "geometry": {"type": "Point", "coordinates": [1.53421, 42.50737]}, "properties": {"name": "La Uni\u00f3", "lines": "", "network": "Expr\u00e9s, Engolasters, L5", "operator": "EEBUS, TRansports de Govern"}}, {"type": "Feature", "geometry": {"type": "Point", "coordinates": [1.5343, 42.50979]}, "properties": {"name": "Dama de Gel", "lines": "", "network": "L2, L7, Bus Uni\u00f3, St Jaume, Vilars, Engolasters", "operator": ""}}, {"type": "Feature", "geometry": {"type": "Point", "coordinates": [1.58978, 42.56008]}, "properties": {"name": "Bus Stop", "lines": "", "network": "", "operator": ""}}, {"type": "Feature", "geometry": {"type": "Point", "coordinates": [1.58991, 42.56003]}, "properties": {"name": "103 Mereig", "lines": "", "network": "L4", "operator": ""}}, {"type": "Feature", "geometry": {"type": "Point", "coordinates": [1.58926, 42.55982]}, "properties": {"name": "104 Mereig", "lines": "", "network": "L4", "operator": ""}}, {"type": "Feature", "geometry": {"type": "Point", "coordinates": [1.58947, 42.55971]}, "properties": {"name": "Bus Stop", "lines": "", "network": "", "operator": ""}}, {"type": "Feature", "geometry": {"type": "Point", "coordinates": [1.52889, 42.50805]}, "properties": {"name": "Bus Stop", "lines": "", "network": "", "operator": ""}}, {"type": "Feature", "geometry": {"type": "Point", "coordinates": [1.50349, 42.4978]}, "properties": {"name": "5110 El Cedre", "lines": "", "network": "L1", "operator": ""}}, {"type": "Feature", "geometry": {"type": "Point", "coordinates": [1.53297, 42.51043]}, "properties": {"name": "Mitjavilla", "lines": "", "network": "L7, Bus Uni\u00f3, Andbus Comunal", "operator": ""}}, {"type": "Feature", "geometry": {"type": "Point", "coordinates": [1.52906, 42.50902]}, "properties": {"name": "5008 Rotonda", "lines": "", "network": "L1, L2, LC, L4, L5, L6", "operator": ""}}, {"type": "Feature", "geometry": {"type": "Point", "coordinates": [1.52599, 42.50828]}, "properties": {"name": "5004 La Creu Grossa", "lines": "", "network": "", "operator": ""}}, {"type": "Feature", "geometry": {"type": "Point", "coordinates": [1.5216, 42.50816]}, "properties": {"name": "5002 Pla\u00e7a Guillem\u00f3", "lines": "", "network": "", "operator": ""}}, {"type": "Feature", "geometry": {"type": "Point", "coordinates": [1.52555, 42.50806]}, "properties": {"name": "5005 La Creu Grossa", "lines": "", "network": "", "operator": ""}}, {"type": "Feature", "geometry": {"type": "Point", "coordinates": [1.52867, 42.50775]}, "properties": {"name": "5009 La Sardana", "lines": "", "network": "L1, L2, LC, L4, L5, L6", "operator": ""}}, {"type": "Feature", "geometry": {"type": "Point", "coordinates": [1.52121, 42.50743]}, "properties": {"name": "5001 Princep Benlloch", "lines": "", "network": "", "operator": ""}}, {"type": "Feature", "geometry": {"type": "Point", "coordinates": [1.53916, 42.50945]}, "properties": {"name": "Pla\u00e7a Copr\u00ednceps", "lines": "", "network": "L2, Engolasters, St. Jaume, Els Vilars, Bus Uni\u00f3", "operator": "Nacional;EE BUS"}}, {"type": "Feature", "geometry": {"type": "Point", "coordinates": [1.53564, 42.50931]}, "properties": {"name": "706 Consell de la Terra", "lines": "", "network": "L1, L2, L4", "operator": ""}}, {"type": "Feature", "geometry": {"type": "Point", "coordinates": [1.56766, 42.52705]}, "properties": {"name": "214 Valira Nova", "lines": "", "network": "L2, L4", "operator": ""}}, {"type": "Feature", "geometry": {"type": "Point", "coordinates": [1.53928, 42.50957]}, "properties": {"name": "Pla\u00e7a Copr\u00ednceps", "lines": "", "network": "Vilars", "operator": "EE BUS"}}, {"type": "Feature", "geometry": {"type": "Point", "coordinates": [1.52428, 42.5069]}, "properties": {"name": "5200 Ambaixada d'Espanya", "lines": "", "network": "L1, L2, L4, L5, L6", "operator": ""}}, {"type": "Feature", "geometry": {"type": "Point", "coordinates": [1.52442, 42.50685]}, "properties": {"name": "5201 Ambaixada d'Espanya", "lines": "", "network": "L1, L2, L4, L5, L6", "operator": ""}}, {"type": "Feature", "geometry": {"type": "Point", "coordinates": [1.51982, 42.53005]}, "properties": {"name": "401 L'Obac de Sispony", "lines": "", "network": "L5, L6", "operator": ""}}, {"type": "Feature", "geometry": {"type": "Point", "coordinates": [1.48705, 42.45248]}, "properties": {"name": "Bus Stop", "lines": "", "network": "", "operator": ""}}, {"type": "Feature", "geometry": {"type": "Point", "coordinates": [1.53416, 42.55568]}, "properties": {"name": "303 Camp de la Tenada / Cultia", "lines": "", "network": "L6", "operator": ""}}, {"type": "Feature", "geometry": {"type": "Point", "coordinates": [1.58722, 42.5347]}, "properties": {"name": "260 Cru\u00eflla dels Cortals", "lines": "", "network": "L2, L4", "operator": "Cooperativa Interurbana Andorrana"}}, {"type": "Feature", "geometry": {"type": "Point", "coordinates": [1.5327, 42.55606]}, "properties": {"name": "306 La Closa / Oficina de Turisme", "lines": "", "network": "L6", "operator": ""}}, {"type": "Feature", "geometry": {"type": "Point", "coordinates": [1.64758, 42.58011]}, "properties": {"name": "145 Cru\u00eflla de Ransol", "lines": "", "network": "L4", "operator": ""}}, {"type": "Feature", "geometry": {"type": "Point", "coordinates": [1.51385, 42.54665]}, "properties": {"name": "416 Centre de la Vila", "lines": "", "network": "L5, L6", "operator": ""}}, {"type": "Feature", "geometry": {"type": "Point", "coordinates": [1.51567, 42.54675]}, "properties": {"name": "418 El Pui", "lines": "", "network": "L6", "operator": ""}}, {"type": "Feature", "geometry": {"type": "Point", "coordinates": [1.51778, 42.542]}, "properties": {"name": "409 Les Costes", "lines": "", "network": "L5, L6", "operator": ""}}, {"type": "Feature", "geometry": {"type": "Point", "coordinates": [1.51971, 42.53773]}, "properties": {"name": "406 Serra de l'Honor", "lines": "", "network": "L5, L6", "operator": ""}}, {"type": "Feature", "geometry": {"type": "Point", "coordinates": [1.51957, 42.54031]}, "properties": {"name": "407 La Cabanota", "lines": "", "network": "L5, L6", "operator": ""}}, {"type": "Feature", "geometry": {"type": "Point", "coordinates": [1.51404, 42.5466]}, "properties": {"name": "415 Centre de la Vila", "lines": "", "network": "L5, L6", "operator": ""}}, {"type": "Feature", "geometry": {"type": "Point", "coordinates": [1.51945, 42.53319]}, "properties": {"name": "404 Cru\u00eflla d'Any\u00f3s", "lines": "", "network": "L5, L6", "operator": ""}}, {"type": "Feature", "geometry": {"type": "Point", "coordinates": [1.51975, 42.53305]}, "properties": {"name": "403 Cru\u00eflla d'Any\u00f3s", "lines": "", "network": "L5, L6", "operator": ""}}, {"type": "Feature", "geometry": {"type": "Point", "coordinates": [1.51529, 42.54502]}, "properties": {"name": "412 Les Entrades", "lines": "", "network": "L5, L6", "operator": ""}}, {"type": "Feature", "geometry": {"type": "Point", "coordinates": [1.5192, 42.53993]}, "properties": {"name": "408 La Cabanota", "lines": "", "network": "L5, L6", "operator": ""}}, {"type": "Feature", "geometry": {"type": "Point", "coordinates": [1.51601, 42.54417]}, "properties": {"name": "411 Les Entrades", "lines": "", "network": "L5, L6", "operator": ""}}, {"type": "Feature", "geometry": {"type": "Point", "coordinates": [1.51826, 42.54552]}, "properties": {"name": "420 El Trav\u00e9s", "lines": "", "network": "L6", "operator": ""}}, {"type": "Feature", "geometry": {"type": "Point", "coordinates": [1.51728, 42.54244]}, "properties": {"name": "410 Les Costes", "lines": "", "network": "L5, L6", "operator": ""}}, {"type": "Feature", "geometry": {"type": "Point", "coordinates": [1.51945, 42.54544]}, "properties": {"name": "419 El Trav\u00e9s", "lines": "", "network": "L6", "operator": ""}}, {"type": "Feature", "geometry": {"type": "Point", "coordinates": [1.53123, 42.50886]}, "properties": {"name": "5011 Consell d'Europa", "lines": "", "network": "L1, L2, LC, L4, L5, L6", "operator": ""}}, {"type": "Feature", "geometry": {"type": "Point", "coordinates": [1.47442, 42.43633]}, "properties": {"name": "Bus Stop", "lines": "", "network": "", "operator": ""}}, {"type": "Feature", "geometry": {"type": "Point", "coordinates": [1.49336, 42.47168]}, "properties": {"name": "Bus Stop", "lines": "", "network": "", "operator": ""}}, {"type": "Feature", "geometry": {"type": "Point", "coordinates": [1.52634, 42.50513]}, "properties": {"name": "5419 Els Marginets", "lines": "", "network": "Expr\u00e9s", "operator": ""}}, {"type": "Feature", "geometry": {"type": "Point", "coordinates": [1.5138, 42.50208]}, "properties": {"name": "5413 Estadi communal", "lines": "", "network": "Expr\u00e9s", "operator": ""}}, {"type": "Feature", "geometry": {"type": "Point", "coordinates": [1.52087, 42.50416]}, "properties": {"name": "5556 Estaci\u00f3 Nacional d'Autobusos", "lines": "", "network": "Expr\u00e9s", "operator": ""}}, {"type": "Feature", "geometry": {"type": "Point", "coordinates": [1.53187, 42.5595]}, "properties": {"name": "325 Les Moles", "lines": "", "network": "L6", "operator": ""}}, {"type": "Feature", "geometry": {"type": "Point", "coordinates": [1.53187, 42.5593]}, "properties": {"name": "326 Les Moles", "lines": "", "network": "L6", "operator": ""}}, {"type": "Feature", "geometry": {"type": "Point", "coordinates": [1.51862, 42.57591]}, "properties": {"name": "345 Pla\u00e7a de la Cortinada", "lines": "", "network": "L6", "operator": ""}}, {"type": "Feature", "geometry": {"type": "Point", "coordinates": [1.53612, 42.60439]}, "properties": {"name": "376 Els Teiers", "lines": "", "network": "L6", "operator": ""}}, {"type": "Feature", "geometry": {"type": "Point", "coordinates": [1.53187, 42.59957]}, "properties": {"name": "371 Les Mines de Llorts", "lines": "", "network": "L6", "operator": ""}}, {"type": "Feature", "geometry": {"type": "Point", "coordinates": [1.52366, 42.58928]}, "properties": {"name": "377 Xalet el Cresp", "lines": "", "network": "L6", "operator": ""}}, {"type": "Feature", "geometry": {"type": "Point", "coordinates": [1.51767, 42.57782]}, "properties": {"name": "339 Mas d'en Soler", "lines": "", "network": "L6", "operator": ""}}, {"type": "Feature", "geometry": {"type": "Point", "coordinates": [1.49638, 42.5615]}, "properties": {"name": "456 Erts", "lines": "", "network": "L5", "operator": ""}}, {"type": "Feature", "geometry": {"type": "Point", "coordinates": [1.53793, 42.61766]}, "properties": {"name": "380 Aparthotel Rialb", "lines": "", "network": "L6", "operator": ""}}, {"type": "Feature", "geometry": {"type": "Point", "coordinates": [1.5271, 42.56321]}, "properties": {"name": "322 Cru\u00eflla de Sorn\u00e0s", "lines": "", "network": "L6", "operator": ""}}, {"type": "Feature", "geometry": {"type": "Point", "coordinates": [1.51981, 42.57187]}, "properties": {"name": "378 Edifici Eagle", "lines": "", "network": "L6", "operator": ""}}, {"type": "Feature", "geometry": {"type": "Point", "coordinates": [1.51819, 42.57471]}, "properties": {"name": "343 La Cortinada", "lines": "", "network": "L6", "operator": ""}}, {"type": "Feature", "geometry": {"type": "Point", "coordinates": [1.54026, 42.61997]}, "properties": {"name": "369 Les Sobiranes", "lines": "", "network": "L6", "operator": ""}}, {"type": "Feature", "geometry": {"type": "Point", "coordinates": [1.5383, 42.61591]}, "properties": {"name": "364 Hostal del Serrat", "lines": "", "network": "L6", "operator": ""}}, {"type": "Feature", "geometry": {"type": "Point", "coordinates": [1.52916, 42.59814]}, "properties": {"name": "355 Xalets la Closa", "lines": "", "network": "L6", "operator": ""}}, {"type": "Feature", "geometry": {"type": "Point", "coordinates": [1.51897, 42.58017]}, "properties": {"name": "374 Hotel Cal Daina", "lines": "", "network": "L6", "operator": ""}}, {"type": "Feature", "geometry": {"type": "Point", "coordinates": [1.52162, 42.5472]}, "properties": {"name": "421 Santa Caterina", "lines": "", "network": "L6", "operator": ""}}, {"type": "Feature", "geometry": {"type": "Point", "coordinates": [1.47479, 42.54554]}, "properties": {"name": "Pal Poble", "lines": "", "network": "", "operator": ""}}, {"type": "Feature", "geometry": {"type": "Point", "coordinates": [1.53872, 42.61841]}, "properties": {"name": "367 Sant Pere", "lines": "", "network": "L6", "operator": ""}}, {"type": "Feature", "geometry": {"type": "Point", "coordinates": [1.52374, 42.56612]}, "properties": {"name": "324 C\u00e0mping Ansalonga", "lines": "", "network": "L6", "operator": ""}}, {"type": "Feature", "geometry": {"type": "Point", "coordinates": [1.5184, 42.57369]}, "properties": {"name": "342 Bordes del Riu", "lines": "", "network": "L6", "operator": ""}}, {"type": "Feature", "geometry": {"type": "Point", "coordinates": [1.51904, 42.58234]}, "properties": {"name": "348 Cru\u00eflla d'Arans", "lines": "", "network": "L6", "operator": ""}}, {"type": "Feature", "geometry": {"type": "Point", "coordinates": [1.52667, 42.59611]}, "properties": {"name": "353 Llorts", "lines": "", "network": "L6", "operator": ""}}, {"type": "Feature", "geometry": {"type": "Point", "coordinates": [1.51723, 42.57732]}, "properties": {"name": "340 Fontblanca", "lines": "", "network": "L6", "operator": ""}}, {"type": "Feature", "geometry": {"type": "Point", "coordinates": [1.50485, 42.55802]}, "properties": {"name": "543 Prat de la Solana", "lines": "", "network": "L5", "operator": ""}}, {"type": "Feature", "geometry": {"type": "Point", "coordinates": [1.47518, 42.5445]}, "properties": {"name": "Super Pal", "lines": "", "network": "", "operator": ""}}, {"type": "Feature", "geometry": {"type": "Point", "coordinates": [1.52156, 42.56867]}, "properties": {"name": "331 Pont d'Ansalonga", "lines": "", "network": "L6", "operator": ""}}, {"type": "Feature", "geometry": {"type": "Point", "coordinates": [1.50687, 42.55384]}, "properties": {"name": "450 Zona Industrial Teixid\u00f3", "lines": "", "network": "L5", "operator": ""}}, {"type": "Feature", "geometry": {"type": "Point", "coordinates": [1.48515, 42.54796]}, "properties": {"name": "El Mamo", "lines": "", "network": "", "operator": ""}}, {"type": "Feature", "geometry": {"type": "Point", "coordinates": [1.58481, 42.53384]}, "properties": {"name": "215 Els Pialassos", "lines": "", "network": "L2, L4", "operator": ""}}, {"type": "Feature", "geometry": {"type": "Point", "coordinates": [1.5856, 42.53445]}, "properties": {"name": "216 El Tirader", "lines": "", "network": "L2, L4", "operator": ""}}, {"type": "Feature", "geometry": {"type": "Point", "coordinates": [1.5673, 42.52653]}, "properties": {"name": "213\u00a0Valira Nova", "lines": "", "network": "L2, L4", "operator": ""}}, {"type": "Feature", "geometry": {"type": "Point", "coordinates": [1.55958, 42.52183]}, "properties": {"name": "223 Prat de la Bartra", "lines": "", "network": "L2, L4", "operator": ""}}, {"type": "Feature", "geometry": {"type": "Point", "coordinates": [1.54004, 42.51108]}, "properties": {"name": "Parnal", "lines": "", "network": "L2", "operator": "Naciional"}}, {"type": "Feature", "geometry": {"type": "Point", "coordinates": [1.47373, 42.43632]}, "properties": {"name": "626 Frontera del Riu Runer", "lines": "", "network": "", "operator": ""}}, {"type": "Feature", "geometry": {"type": "Point", "coordinates": [1.51577, 42.54657]}, "properties": {"name": "417 El Pui", "lines": "", "network": "L6", "operator": ""}}, {"type": "Feature", "geometry": {"type": "Point", "coordinates": [1.53366, 42.51167]}, "properties": {"name": "Hospital", "lines": "", "network": "Parroquial", "operator": "EE BUS"}}, {"type": "Feature", "geometry": {"type": "Point", "coordinates": [1.55266, 42.51373]}, "properties": {"name": "728 Central de FEDA", "lines": "", "network": "L2, L4", "operator": ""}}, {"type": "Feature", "geometry": {"type": "Point", "coordinates": [1.60736, 42.57103]}, "properties": {"name": "120 St. Joan de Caselles", "lines": "", "network": "L4", "operator": ""}}, {"type": "Feature", "geometry": {"type": "Point", "coordinates": [1.61533, 42.57274]}, "properties": {"name": "126 Cascada de les Moles", "lines": "", "network": "L4", "operator": ""}}, {"type": "Feature", "geometry": {"type": "Point", "coordinates": [1.61637, 42.57288]}, "properties": {"name": "125 Cascada de les Moles", "lines": "", "network": "L4", "operator": ""}}, {"type": "Feature", "geometry": {"type": "Point", "coordinates": [1.55313, 42.51391]}, "properties": {"name": "727 Central de FEDA", "lines": "", "network": "L2, L4", "operator": ""}}, {"type": "Feature", "geometry": {"type": "Point", "coordinates": [1.5559, 42.51828]}, "properties": {"name": "231 Prada Ramonet", "lines": "", "network": "L2, L4", "operator": ""}}, {"type": "Feature", "geometry": {"type": "Point", "coordinates": [1.5558, 42.5184]}, "properties": {"name": "232 Prada Ramonet", "lines": "", "network": "L2, L4", "operator": ""}}, {"type": "Feature", "geometry": {"type": "Point", "coordinates": [1.57192, 42.52964]}, "properties": {"name": "217 Prada de Moles", "lines": "", "network": "L2, L4", "operator": ""}}, {"type": "Feature", "geometry": {"type": "Point", "coordinates": [1.57189, 42.52982]}, "properties": {"name": "218 Prada de Moles", "lines": "", "network": "L2, L4", "operator": ""}}, {"type": "Feature", "geometry": {"type": "Point", "coordinates": [1.58789, 42.53499]}, "properties": {"name": "259 Cru\u00eflla dels Cortals", "lines": "", "network": "L2, L4", "operator": ""}}, {"type": "Feature", "geometry": {"type": "Point", "coordinates": [1.62142, 42.57469]}, "properties": {"name": "123 La Traba", "lines": "", "network": "L4", "operator": ""}}, {"type": "Feature", "geometry": {"type": "Point", "coordinates": [1.62872, 42.57784]}, "properties": {"name": "132 La Creu de l'Aldosa", "lines": "", "network": "L4", "operator": ""}}, {"type": "Feature", "geometry": {"type": "Point", "coordinates": [1.63426, 42.5783]}, "properties": {"name": "134 L'Aldosa", "lines": "", "network": "L4", "operator": ""}}, {"type": "Feature", "geometry": {"type": "Point", "coordinates": [1.64169, 42.57956]}, "properties": {"name": "144 La Costa", "lines": "", "network": "L4", "operator": ""}}, {"type": "Feature", "geometry": {"type": "Point", "coordinates": [1.65972, 42.57993]}, "properties": {"name": "161 Moles", "lines": "", "network": "L4", "operator": ""}}, {"type": "Feature", "geometry": {"type": "Point", "coordinates": [1.66391, 42.58022]}, "properties": {"name": "165 Roc de Sant Miquel", "lines": "", "network": "L4", "operator": ""}}, {"type": "Feature", "geometry": {"type": "Point", "coordinates": [1.66856, 42.57648]}, "properties": {"name": "173 Pla\u00e7a Sant Bartomeu", "lines": "", "network": "L4", "operator": ""}}, {"type": "Feature", "geometry": {"type": "Point", "coordinates": [1.51384, 42.50236]}, "properties": {"name": "5412 Estadi Comunal", "lines": "", "network": "Expr\u00e9s", "operator": ""}}, {"type": "Feature", "geometry": {"type": "Point", "coordinates": [1.51096, 42.49822]}, "properties": {"name": "5411 Les Costes", "lines": "", "network": "Expr\u00e9s", "operator": ""}}, {"type": "Feature", "geometry": {"type": "Point", "coordinates": [1.50416, 42.49532]}, "properties": {"name": "5408 Prat de Salit", "lines": "", "network": "Expr\u00e9s", "operator": ""}}, {"type": "Feature", "geometry": {"type": "Point", "coordinates": [1.5005, 42.49357]}, "properties": {"name": "5407 Pont de Santa Coloma", "lines": "", "network": "Expr\u00e9s", "operator": ""}}, {"type": "Feature", "geometry": {"type": "Point", "coordinates": [1.50063, 42.49382]}, "properties": {"name": "5408 Pont de Santa Coloma", "lines": "", "network": "Expr\u00e9s", "operator": ""}}, {"type": "Feature", "geometry": {"type": "Point", "coordinates": [1.49652, 42.49104]}, "properties": {"name": "5405 Pont Poblad\u00f3", "lines": "", "network": "Expr\u00e9s", "operator": ""}}, {"type": "Feature", "geometry": {"type": "Point", "coordinates": [1.49631, 42.49095]}, "properties": {"name": "5404 Pont Poblad\u00f3", "lines": "", "network": "Expr\u00e9s", "operator": ""}}, {"type": "Feature", "geometry": {"type": "Point", "coordinates": [1.49019, 42.47666]}, "properties": {"name": "604 Rotonda d'Aixovall", "lines": "", "network": "L1, Expr\u00e9s", "operator": ""}}, {"type": "Feature", "geometry": {"type": "Point", "coordinates": [1.49331, 42.47168]}, "properties": {"name": "608 Avinguda de Rocafort", "lines": "", "network": "L1,Expr\u00e9s", "operator": ""}}, {"type": "Feature", "geometry": {"type": "Point", "coordinates": [1.49348, 42.4715]}, "properties": {"name": "517 Les Arades", "lines": "", "network": "L1, Expr\u00e9s", "operator": ""}}, {"type": "Feature", "geometry": {"type": "Point", "coordinates": [1.49276, 42.4685]}, "properties": {"name": "610 Prat Nou", "lines": "", "network": "L1, Expr\u00e9s", "operator": ""}}, {"type": "Feature", "geometry": {"type": "Point", "coordinates": [1.49212, 42.4674]}, "properties": {"name": "612 Pont de Molines", "lines": "", "network": "L1, Expr\u00e9s", "operator": ""}}, {"type": "Feature", "geometry": {"type": "Point", "coordinates": [1.49001, 42.46398]}, "properties": {"name": "619 La Valireta", "lines": "", "network": "L1", "operator": ""}}, {"type": "Feature", "geometry": {"type": "Point", "coordinates": [1.48932, 42.46017]}, "properties": {"name": "618 La Planella", "lines": "", "network": "L1", "operator": ""}}, {"type": "Feature", "geometry": {"type": "Point", "coordinates": [1.4875, 42.458]}, "properties": {"name": "620 Riu d'Aubiny\u00e0", "lines": "", "network": "L1", "operator": ""}}, {"type": "Feature", "geometry": {"type": "Point", "coordinates": [1.48694, 42.4549]}, "properties": {"name": "605 La Riberola", "lines": "", "network": "L1", "operator": ""}}, {"type": "Feature", "geometry": {"type": "Point", "coordinates": [1.48669, 42.45489]}, "properties": {"name": "620 La Riberola", "lines": "", "network": "L1", "operator": ""}}, {"type": "Feature", "geometry": {"type": "Point", "coordinates": [1.48255, 42.44859]}, "properties": {"name": "624 La Portalada", "lines": "", "network": "L1", "operator": ""}}, {"type": "Feature", "geometry": {"type": "Point", "coordinates": [1.48232, 42.44679]}, "properties": {"name": "603 La Portalada", "lines": "", "network": "L1", "operator": ""}}, {"type": "Feature", "geometry": {"type": "Point", "coordinates": [1.47453, 42.43628]}, "properties": {"name": "601 Frontera del Riu Runer", "lines": "", "network": "", "operator": ""}}, {"type": "Feature", "geometry": {"type": "Point", "coordinates": [1.49629, 42.49193]}, "properties": {"name": "5126 Riu d'Enclar", "lines": "", "network": "L1", "operator": ""}}, {"type": "Feature", "geometry": {"type": "Point", "coordinates": [1.49698, 42.49235]}, "properties": {"name": "5127 Riu d'Enclar", "lines": "", "network": "L1", "operator": ""}}, {"type": "Feature", "geometry": {"type": "Point", "coordinates": [1.50056, 42.49626]}, "properties": {"name": "5123 Sant Vicen\u00e7", "lines": "", "network": "L1", "operator": ""}}, {"type": "Feature", "geometry": {"type": "Point", "coordinates": [1.49942, 42.49586]}, "properties": {"name": "5122 Sant Vicen\u00e7", "lines": "", "network": "L1", "operator": ""}}, {"type": "Feature", "geometry": {"type": "Point", "coordinates": [1.50081, 42.49653]}, "properties": {"name": "5120 Moss\u00e8n Llu\u00eds Pujol", "lines": "", "network": "L1", "operator": ""}}, {"type": "Feature", "geometry": {"type": "Point", "coordinates": [1.50087, 42.49645]}, "properties": {"name": "5121 Moss\u00e8n Llu\u00eds Pujol", "lines": "", "network": "L1", "operator": ""}}, {"type": "Feature", "geometry": {"type": "Point", "coordinates": [1.50251, 42.49724]}, "properties": {"name": "5111 El Cedre", "lines": "", "network": "L1", "operator": ""}}, {"type": "Feature", "geometry": {"type": "Point", "coordinates": [1.5078, 42.49995]}, "properties": {"name": "5108 Les Prades", "lines": "", "network": "L1", "operator": ""}}, {"type": "Feature", "geometry": {"type": "Point", "coordinates": [1.50772, 42.49973]}, "properties": {"name": "5109 Les Prades", "lines": "", "network": "L1", "operator": ""}}, {"type": "Feature", "geometry": {"type": "Point", "coordinates": [1.5097, 42.50082]}, "properties": {"name": "5106 Gil Torres", "lines": "", "network": "L1", "operator": ""}}, {"type": "Feature", "geometry": {"type": "Point", "coordinates": [1.51054, 42.50116]}, "properties": {"name": "5107 Gil Torres", "lines": "", "network": "L1", "operator": ""}}, {"type": "Feature", "geometry": {"type": "Point", "coordinates": [1.51397, 42.50365]}, "properties": {"name": "5103 Stela", "lines": "", "network": "L1", "operator": ""}}, {"type": "Feature", "geometry": {"type": "Point", "coordinates": [1.51357, 42.50348]}, "properties": {"name": "5104 Roureda de Sansa", "lines": "", "network": "L1", "operator": ""}}, {"type": "Feature", "geometry": {"type": "Point", "coordinates": [1.52092, 42.50601]}, "properties": {"name": "5204 La Grau", "lines": "", "network": "L1", "operator": ""}}, {"type": "Feature", "geometry": {"type": "Point", "coordinates": [1.53555, 42.51121]}, "properties": {"name": "Esteve Albert", "lines": "", "network": "L1, L5, L7, Vilars", "operator": "Nacional, EE BUS"}}, {"type": "Feature", "geometry": {"type": "Point", "coordinates": [1.53877, 42.5113]}, "properties": {"name": "Caldea", "lines": "", "network": "L1;Camino Bus;Engolasters;St. Jaume;Vilars, Bus Uni\u00f3", "operator": "Nacional;EE BUS;Camino Bus;Hife"}}, {"type": "Feature", "geometry": {"type": "Point", "coordinates": [1.52097, 42.50433]}, "properties": {"name": "5555 Estaci\u00f3 Nacional d'Autobusos", "lines": "", "network": "L2, L4, L5, L6, Expr\u00e9s", "operator": ""}}, {"type": "Feature", "geometry": {"type": "Point", "coordinates": [1.52344, 42.50469]}, "properties": {"name": "5417 Terra Vella", "lines": "", "network": "Expr\u00e9s", "operator": ""}}, {"type": "Feature", "geometry": {"type": "Point", "coordinates": [1.52685, 42.50533]}, "properties": {"name": "5418 Els Marginets", "lines": "", "network": "Expr\u00e9s", "operator": ""}}, {"type": "Feature", "geometry": {"type": "Point", "coordinates": [1.532, 42.50616]}, "properties": {"name": "5024 Rotonda Escaler", "lines": "", "network": "Expr\u00e9s", "operator": ""}}, {"type": "Feature", "geometry": {"type": "Point", "coordinates": [1.5478, 42.5089]}, "properties": {"name": "Carretera de l'Obac", "lines": "", "network": "L3, L4, L6", "operator": "Nacional"}}, {"type": "Feature", "geometry": {"type": "Point", "coordinates": [1.54862, 42.51066]}, "properties": {"name": "Coll de Caldes", "lines": "", "network": "L3, L4, L6", "operator": "Nacional"}}, {"type": "Feature", "geometry": {"type": "Point", "coordinates": [1.54065, 42.51185]}, "properties": {"name": "La Grau", "lines": "", "network": "L7, St. Jaume, Bus Uni\u00f3", "operator": "EE BUS, Transports de Govern"}}, {"type": "Feature", "geometry": {"type": "Point", "coordinates": [1.53733, 42.51289]}, "properties": {"name": "Hortalets de Guern", "lines": "", "network": "St. Jaume, Bus Uni\u00f3", "operator": "EE BUS"}}, {"type": "Feature", "geometry": {"type": "Point", "coordinates": [1.53184, 42.51485]}, "properties": {"name": "Cru\u00eflla dels Vilars", "lines": "", "network": "L5, L7, Els Vilars, St. Jaume", "operator": "EE BUS, TRansports de Govern"}}, {"type": "Feature", "geometry": {"type": "Point", "coordinates": [1.53164, 42.51488]}, "properties": {"name": "Cru\u00eflla dels Vilars", "lines": "", "network": "L5, L7, Els Vilars, St. Jaume", "operator": "EE BUS, TRansports de Govern"}}, {"type": "Feature", "geometry": {"type": "Point", "coordinates": [1.53043, 42.51595]}, "properties": {"name": "Canal de Lloser", "lines": "", "network": "L5, L7, Els Vilars, St. Jaume", "operator": "Transport de Govern, EE BUS"}}, {"type": "Feature", "geometry": {"type": "Point", "coordinates": [1.53016, 42.51598]}, "properties": {"name": "718 Els Baus", "lines": "", "network": "L5, L7, Els Vilars, St, Jaume", "operator": "Transport de Govern, EE BUS"}}, {"type": "Feature", "geometry": {"type": "Point", "coordinates": [1.53591, 42.51325]}, "properties": {"name": "Els Escalls", "lines": "", "network": "L7, L5, Els Vilars", "operator": "EE BUS, TRansports de Govern"}}, {"type": "Feature", "geometry": {"type": "Point", "coordinates": [1.53528, 42.51264]}, "properties": {"name": "Els Escalls", "lines": "", "network": "L7, Els Vilars, St. JAume", "operator": "EE BUS, TRansports de Govern"}}, {"type": "Feature", "geometry": {"type": "Point", "coordinates": [1.53394, 42.5113]}, "properties": {"name": "712 La Trenca", "lines": "", "network": "L7", "operator": "TRansports de Govern"}}, {"type": "Feature", "geometry": {"type": "Point", "coordinates": [1.52052, 42.52511]}, "properties": {"name": "425 L'Oratori de Sant Antoni", "lines": "", "network": "L5, L6", "operator": ""}}, {"type": "Feature", "geometry": {"type": "Point", "coordinates": [1.50703, 42.55388]}, "properties": {"name": "449 Zona Industrial Teixid\u00f3", "lines": "", "network": "L5", "operator": ""}}, {"type": "Feature", "geometry": {"type": "Point", "coordinates": [1.52142, 42.54714]}, "properties": {"name": "310 El Lloser / Santa Catarina", "lines": "", "network": "L6", "operator": ""}}, {"type": "Feature", "geometry": {"type": "Point", "coordinates": [1.52354, 42.54931]}, "properties": {"name": "309 Pont d'Ordino", "lines": "", "network": "L6", "operator": ""}}, {"type": "Feature", "geometry": {"type": "Point", "coordinates": [1.50466, 42.55776]}, "properties": {"name": "545 Prat de la Solana", "lines": "", "network": "L5", "operator": ""}}, {"type": "Feature", "geometry": {"type": "Point", "coordinates": [1.49703, 42.56158]}, "properties": {"name": "455 Erts", "lines": "", "network": "L5", "operator": ""}}, {"type": "Feature", "geometry": {"type": "Point", "coordinates": [1.49174, 42.56501]}, "properties": {"name": "457 El Puiol del Pui", "lines": "", "network": "L5", "operator": ""}}, {"type": "Feature", "geometry": {"type": "Point", "coordinates": [1.49134, 42.56525]}, "properties": {"name": "458 El Puiol del Pui", "lines": "", "network": "L5", "operator": ""}}, {"type": "Feature", "geometry": {"type": "Point", "coordinates": [1.48973, 42.56725]}, "properties": {"name": "469 El Barric\u00f3", "lines": "", "network": "L5", "operator": ""}}, {"type": "Feature", "geometry": {"type": "Point", "coordinates": [1.48982, 42.56697]}, "properties": {"name": "470 El Barric\u00f3", "lines": "", "network": "L5", "operator": ""}}, {"type": "Feature", "geometry": {"type": "Point", "coordinates": [1.48824, 42.56913]}, "properties": {"name": "460 Prat de la Mola", "lines": "", "network": "L5", "operator": ""}}, {"type": "Feature", "geometry": {"type": "Point", "coordinates": [1.48821, 42.56931]}, "properties": {"name": "459 Prat de la Mola", "lines": "", "network": "L5", "operator": ""}}, {"type": "Feature", "geometry": {"type": "Point", "coordinates": [1.48616, 42.57116]}, "properties": {"name": "461 Prat de Moles", "lines": "", "network": "L5", "operator": ""}}, {"type": "Feature", "geometry": {"type": "Point", "coordinates": [1.48545, 42.57146]}, "properties": {"name": "462 Prat de Moles", "lines": "", "network": "L5", "operator": ""}}, {"type": "Feature", "geometry": {"type": "Point", "coordinates": [1.48374, 42.57276]}, "properties": {"name": "464 Pla\u00e7a d'Arinsal", "lines": "", "network": "L5", "operator": ""}}, {"type": "Feature", "geometry": {"type": "Point", "coordinates": [1.48389, 42.57264]}, "properties": {"name": "463 Pla\u00e7a d'Arinsal", "lines": "", "network": "L5", "operator": ""}}, {"type": "Feature", "geometry": {"type": "Point", "coordinates": [1.48152, 42.5758]}, "properties": {"name": "465 Sant Andreu", "lines": "", "network": "L5", "operator": ""}}, {"type": "Feature", "geometry": {"type": "Point", "coordinates": [1.4813, 42.57608]}, "properties": {"name": "466 Sant Andreu", "lines": "", "network": "L5", "operator": ""}}, {"type": "Feature", "geometry": {"type": "Point", "coordinates": [1.47887, 42.57834]}, "properties": {"name": "458 Aparcament d'Arinsal", "lines": "", "network": "L5", "operator": ""}}, {"type": "Feature", "geometry": {"type": "Point", "coordinates": [1.52432, 42.54931]}, "properties": {"name": "424 Pleta de l'Aldosa", "lines": "", "network": "L6", "operator": ""}}, {"type": "Feature", "geometry": {"type": "Point", "coordinates": [1.52618, 42.55054]}, "properties": {"name": "308 Grau Sobir\u00e0 / Cru\u00eflla de l'Aldosa", "lines": "", "network": "L6", "operator": ""}}, {"type": "Feature", "geometry": {"type": "Point", "coordinates": [1.52651, 42.55083]}, "properties": {"name": "307 Grau Sobir\u00e0 / Cru\u00eflla de l'Aldosa", "lines": "", "network": "L6", "operator": ""}}, {"type": "Feature", "geometry": {"type": "Point", "coordinates": [1.52877, 42.55402]}, "properties": {"name": "306 Clota Verda", "lines": "", "network": "L6", "operator": ""}}, {"type": "Feature", "geometry": {"type": "Point", "coordinates": [1.52829, 42.55325]}, "properties": {"name": "305 Clota Verda", "lines": "", "network": "L6", "operator": ""}}, {"type": "Feature", "geometry": {"type": "Point", "coordinates": [1.53466, 42.55672]}, "properties": {"name": "320 Portal del Riu", "lines": "", "network": "L6", "operator": ""}}, {"type": "Feature", "geometry": {"type": "Point", "coordinates": [1.53259, 42.55692]}, "properties": {"name": "327 El Raval", "lines": "", "network": "L6", "operator": ""}}, {"type": "Feature", "geometry": {"type": "Point", "coordinates": [1.52698, 42.56346]}, "properties": {"name": "321 Cru\u00eflla de Sorn\u00e0s", "lines": "", "network": "L6", "operator": ""}}, {"type": "Feature", "geometry": {"type": "Point", "coordinates": [1.52384, 42.56617]}, "properties": {"name": "323 C\u00e0mping Ansalonga", "lines": "", "network": "L6", "operator": ""}}, {"type": "Feature", "geometry": {"type": "Point", "coordinates": [1.52133, 42.56869]}, "properties": {"name": "332 Pont d'Ansalonga", "lines": "", "network": "L6", "operator": ""}}, {"type": "Feature", "geometry": {"type": "Point", "coordinates": [1.51886, 42.57292]}, "properties": {"name": "341 Bordes del Riu", "lines": "", "network": "L6", "operator": ""}}, {"type": "Feature", "geometry": {"type": "Point", "coordinates": [1.51798, 42.57519]}, "properties": {"name": "344 La Cortinada", "lines": "", "network": "L6", "operator": ""}}, {"type": "Feature", "geometry": {"type": "Point", "coordinates": [1.5191, 42.58014]}, "properties": {"name": "373 Hotel Cal Daina", "lines": "", "network": "L6", "operator": ""}}, {"type": "Feature", "geometry": {"type": "Point", "coordinates": [1.51923, 42.5826]}, "properties": {"name": "347 Cru\u00eflla d'Arans", "lines": "", "network": "L6", "operator": ""}}, {"type": "Feature", "geometry": {"type": "Point", "coordinates": [1.52041, 42.58463]}, "properties": {"name": "349 Bordes d'Arans", "lines": "", "network": "L6", "operator": ""}}, {"type": "Feature", "geometry": {"type": "Point", "coordinates": [1.52025, 42.5846]}, "properties": {"name": "350 Bordes d'Arans", "lines": "", "network": "L6", "operator": ""}}, {"type": "Feature", "geometry": {"type": "Point", "coordinates": [1.52568, 42.59372]}, "properties": {"name": "352 Vilar\u00f3", "lines": "", "network": "L6", "operator": ""}}, {"type": "Feature", "geometry": {"type": "Point", "coordinates": [1.52558, 42.59325]}, "properties": {"name": "351 Vilar\u00f3", "lines": "", "network": "L6", "operator": ""}}, {"type": "Feature", "geometry": {"type": "Point", "coordinates": [1.52655, 42.59614]}, "properties": {"name": "354 Llorts", "lines": "", "network": "L6", "operator": ""}}, {"type": "Feature", "geometry": {"type": "Point", "coordinates": [1.52939, 42.59846]}, "properties": {"name": "356 Xalets de la Closa", "lines": "", "network": "L6", "operator": ""}}, {"type": "Feature", "geometry": {"type": "Point", "coordinates": [1.53207, 42.5998]}, "properties": {"name": "372 Les Mines de Llorts", "lines": "", "network": "L6", "operator": ""}}, {"type": "Feature", "geometry": {"type": "Point", "coordinates": [1.53603, 42.60472]}, "properties": {"name": "375 Els Teiers", "lines": "", "network": "L6", "operator": ""}}, {"type": "Feature", "geometry": {"type": "Point", "coordinates": [1.53881, 42.61065]}, "properties": {"name": "357 Les Salines", "lines": "", "network": "L6", "operator": ""}}, {"type": "Feature", "geometry": {"type": "Point", "coordinates": [1.5385, 42.61605]}, "properties": {"name": "363 Hostal del Serrat", "lines": "", "network": "L6", "operator": ""}}, {"type": "Feature", "geometry": {"type": "Point", "coordinates": [1.53894, 42.6186]}, "properties": {"name": "368 Sant Pere", "lines": "", "network": "L6", "operator": ""}}, {"type": "Feature", "geometry": {"type": "Point", "coordinates": [1.53999, 42.62005]}, "properties": {"name": "370 Les Sobiranes", "lines": "", "network": "L6", "operator": ""}}, {"type": "Feature", "geometry": {"type": "Point", "coordinates": [1.49985, 42.63205]}, "properties": {"name": "396 Arcal\u00eds", "lines": "", "network": "L6", "operator": ""}}, {"type": "Feature", "geometry": {"type": "Point", "coordinates": [1.48714, 42.45246]}, "properties": {"name": "La Riberola", "lines": "", "network": "", "operator": ""}}, {"type": "Feature", "geometry": {"type": "Point", "coordinates": [1.58485, 42.53339]}, "properties": {"name": "Parada Provisional OBAG", "lines": "", "network": "", "operator": ""}}, {"type": "Feature", "geometry": {"type": "Point", "coordinates": [1.58536, 42.53334]}, "properties": {"name": "Parada Provisional OBAG", "lines": "", "network": "", "operator": ""}}, {"type": "Feature", "geometry": {"type": "Point", "coordinates": [1.58164, 42.53369]}, "properties": {"name": "Bus Stop", "lines": "", "network": "", "operator": ""}}, {"type": "Feature", "geometry": {"type": "Point", "coordinates": [1.5818, 42.53381]}, "properties": {"name": "Bus Stop", "lines": "", "network": "", "operator": ""}}, {"type": "Feature", "geometry": {"type": "Point", "coordinates": [1.49041, 42.46199]}, "properties": {"name": "Bus Stop", "lines": "", "network": "", "operator": ""}}, {"type": "Feature", "geometry": {"type": "Point", "coordinates": [1.51365, 42.50342]}, "properties": {"name": "Bus Stop", "lines": "", "network": "", "operator": ""}}, {"type": "Feature", "geometry": {"type": "Point", "coordinates": [1.52432, 42.54935]}, "properties": {"name": "Bus Stop", "lines": "", "network": "", "operator": ""}}, {"type": "Feature", "geometry": {"type": "Point", "coordinates": [1.54206, 42.50949]}, "properties": {"name": "Creu Blanca", "lines": "", "network": "St. Jaume, Bus Uni\u00f3", "operator": "EE BUS"}}, {"type": "Feature", "geometry": {"type": "Point", "coordinates": [1.54833, 42.5083]}, "properties": {"name": "Pleta de Caldea", "lines": "", "network": "Engolasters", "operator": "EE BUS"}}, {"type": "Feature", "geometry": {"type": "Point", "coordinates": [1.54927, 42.50763]}, "properties": {"name": "Les Molleres", "lines": "", "network": "Engolasters", "operator": "EE Bus"}}, {"type": "Feature", "geometry": {"type": "Point", "coordinates": [1.48195, 42.44614]}, "properties": {"name": "Juberrussa", "lines": "", "network": "", "operator": ""}}, {"type": "Feature", "geometry": {"type": "Point", "coordinates": [1.52807, 42.50723]}, "properties": {"name": "Bus Stop", "lines": "", "network": "", "operator": ""}}, {"type": "Feature", "geometry": {"type": "Point", "coordinates": [1.49344, 42.47152]}, "properties": {"name": "Bus Stop", "lines": "", "network": "", "operator": ""}}, {"type": "Feature", "geometry": {"type": "Point", "coordinates": [1.49052, 42.46201]}, "properties": {"name": "Bus Stop", "lines": "", "network": "", "operator": ""}}, {"type": "Feature", "geometry": {"type": "Point", "coordinates": [1.58126, 42.53487]}, "properties": {"name": "Bus Stop", "lines": "", "network": "", "operator": ""}}, {"type": "Feature", "geometry": {"type": "Point", "coordinates": [1.52825, 42.55326]}, "properties": {"name": "Bus Stop", "lines": "", "network": "", "operator": ""}}, {"type": "Feature", "geometry": {"type": "Point", "coordinates": [1.52617, 42.55056]}, "properties": {"name": "Bus Stop", "lines": "", "network": "", "operator": ""}}, {"type": "Feature", "geometry": {"type": "Point", "coordinates": [1.52148, 42.54714]}, "properties": {"name": "Bus Stop", "lines": "", "network": "", "operator": ""}}, {"type": "Feature", "geometry": {"type": "Point", "coordinates": [1.52157, 42.54721]}, "properties": {"name": "Bus Stop", "lines": "", "network": "", "operator": ""}}, {"type": "Feature", "geometry": {"type": "Point", "coordinates": [1.51971, 42.53302]}, "properties": {"name": "Bus Stop", "lines": "", "network": "", "operator": ""}}, {"type": "Feature", "geometry": {"type": "Point", "coordinates": [1.5195, 42.53872]}, "properties": {"name": "Bus Stop", "lines": "", "network": "", "operator": ""}}, {"type": "Feature", "geometry": {"type": "Point", "coordinates": [1.51949, 42.54032]}, "properties": {"name": "Bus Stop", "lines": "", "network": "", "operator": ""}}, {"type": "Feature", "geometry": {"type": "Point", "coordinates": [1.5853, 42.53574]}, "properties": {"name": "Bus Stop", "lines": "", "network": "", "operator": ""}}, {"type": "Feature", "geometry": {"type": "Point", "coordinates": [1.58348, 42.53692]}, "properties": {"name": "Bus Stop", "lines": "", "network": "", "operator": ""}}, {"type": "Feature", "geometry": {"type": "Point", "coordinates": [1.58727, 42.53466]}, "properties": {"name": "Bus Stop", "lines": "", "network": "", "operator": ""}}, {"type": "Feature", "geometry": {"type": "Point", "coordinates": [1.58079, 42.5343]}, "properties": {"name": "Bus Stop", "lines": "", "network": "", "operator": ""}}, {"type": "Feature", "geometry": {"type": "Point", "coordinates": [1.58131, 42.53504]}, "properties": {"name": "Bus Stop", "lines": "", "network": "", "operator": ""}}, {"type": "Feature", "geometry": {"type": "Point", "coordinates": [1.5812, 42.53488]}, "properties": {"name": "Bus Stop", "lines": "", "network": "", "operator": ""}}, {"type": "Feature", "geometry": {"type": "Point", "coordinates": [1.4927, 42.46716]}, "properties": {"name": "Bus Stop", "lines": "", "network": "", "operator": ""}}, {"type": "Feature", "geometry": {"type": "Point", "coordinates": [1.48757, 42.45803]}, "properties": {"name": "Bus Stop", "lines": "", "network": "", "operator": ""}}, {"type": "Feature", "geometry": {"type": "Point", "coordinates": [1.48991, 42.46398]}, "properties": {"name": "Bus Stop", "lines": "", "network": "", "operator": ""}}, {"type": "Feature", "geometry": {"type": "Point", "coordinates": [1.4915, 42.4846]}, "properties": {"name": "Bus Stop", "lines": "", "network": "", "operator": ""}}, {"type": "Feature", "geometry": {"type": "Point", "coordinates": [1.49694, 42.49236]}, "properties": {"name": "Bus Stop", "lines": "", "network": "", "operator": ""}}, {"type": "Feature", "geometry": {"type": "Point", "coordinates": [1.50975, 42.50077]}, "properties": {"name": "Bus Stop", "lines": "", "network": "", "operator": ""}}, {"type": "Feature", "geometry": {"type": "Point", "coordinates": [1.50768, 42.49979]}, "properties": {"name": "Bus Stop", "lines": "", "network": "", "operator": ""}}, {"type": "Feature", "geometry": {"type": "Point", "coordinates": [1.50248, 42.49727]}, "properties": {"name": "Bus Stop", "lines": "", "network": "", "operator": ""}}, {"type": "Feature", "geometry": {"type": "Point", "coordinates": [1.50052, 42.49631]}, "properties": {"name": "Bus Stop", "lines": "", "network": "", "operator": ""}}, {"type": "Feature", "geometry": {"type": "Point", "coordinates": [1.51393, 42.50367]}, "properties": {"name": "Bus Stop", "lines": "", "network": "", "operator": ""}}, {"type": "Feature", "geometry": {"type": "Point", "coordinates": [1.52792, 42.50796]}, "properties": {"name": "Bus Stop", "lines": "", "network": "", "operator": ""}}, {"type": "Feature", "geometry": {"type": "Point", "coordinates": [1.52788, 42.50797]}, "properties": {"name": "Bus Stop", "lines": "", "network": "", "operator": ""}}, {"type": "Feature", "geometry": {"type": "Point", "coordinates": [1.52602, 42.50823]}, "properties": {"name": "Bus Stop", "lines": "", "network": "", "operator": ""}}, {"type": "Feature", "geometry": {"type": "Point", "coordinates": [1.52554, 42.50811]}, "properties": {"name": "Bus Stop", "lines": "", "network": "", "operator": ""}}, {"type": "Feature", "geometry": {"type": "Point", "coordinates": [1.56471, 42.51066]}, "properties": {"name": "Font de la Closa", "lines": "", "network": "Engolasters", "operator": "EE BUS"}}, {"type": "Feature", "geometry": {"type": "Point", "coordinates": [1.48944, 42.46167]}, "properties": {"name": "Bus Stop", "lines": "", "network": "", "operator": ""}}, {"type": "Feature", "geometry": {"type": "Point", "coordinates": [1.4893, 42.46418]}, "properties": {"name": "Bus Stop", "lines": "", "network": "", "operator": ""}}, {"type": "Feature", "geometry": {"type": "Point", "coordinates": [1.54843, 42.50826]}, "properties": {"name": "Pleta de Caldea", "lines": "", "network": "Engolasters", "operator": "EE BUS"}}, {"type": "Feature", "geometry": {"type": "Point", "coordinates": [1.54935, 42.50768]}, "properties": {"name": "Les Molleres", "lines": "", "network": "Engolasters", "operator": "EE BUS"}}, {"type": "Feature", "geometry": {"type": "Point", "coordinates": [1.55042, 42.50637]}, "properties": {"name": "Urb. Can Noguer", "lines": "", "network": "Engolasters", "operator": "EE BUS"}}, {"type": "Feature", "geometry": {"type": "Point", "coordinates": [1.55064, 42.50629]}, "properties": {"name": "Urb. Can Noguer", "lines": "", "network": "Engolasters", "operator": "EE BUS"}}, {"type": "Feature", "geometry": {"type": "Point", "coordinates": [1.55096, 42.50434]}, "properties": {"name": "Vall del Madriu", "lines": "", "network": "Engolasters", "operator": "EE BUS"}}, {"type": "Feature", "geometry": {"type": "Point", "coordinates": [1.55106, 42.50422]}, "properties": {"name": "Val del Madriu", "lines": "", "network": "Engolasters", "operator": "EE BUS"}}, {"type": "Feature", "geometry": {"type": "Point", "coordinates": [1.54717, 42.50563]}, "properties": {"name": "Cemintiri de La Plana", "lines": "", "network": "Engolasters", "operator": "EE Bus"}}, {"type": "Feature", "geometry": {"type": "Point", "coordinates": [1.55746, 42.51009]}, "properties": {"name": "Bosc de La Devesa", "lines": "", "network": "Engolasters", "operator": "EE BUS"}}, {"type": "Feature", "geometry": {"type": "Point", "coordinates": [1.55734, 42.51011]}, "properties": {"name": "Bosc de La Devesa", "lines": "", "network": "Engolasters", "operator": "EE BUS"}}, {"type": "Feature", "geometry": {"type": "Point", "coordinates": [1.5597, 42.51197]}, "properties": {"name": "Urb. St. Miquel d'Engolasters", "lines": "", "network": "Engolasters", "operator": "EE BUS"}}, {"type": "Feature", "geometry": {"type": "Point", "coordinates": [1.55981, 42.50992]}, "properties": {"name": "Ermita St. Miquel", "lines": "", "network": "Engolasters", "operator": "EE BUS"}}, {"type": "Feature", "geometry": {"type": "Point", "coordinates": [1.54076, 42.51235]}, "properties": {"name": "Cam\u00ed del Roc", "lines": "", "network": "St. JAume", "operator": "EE BUS"}}, {"type": "Feature", "geometry": {"type": "Point", "coordinates": [1.54093, 42.51236]}, "properties": {"name": "Cam\u00ed del Roc", "lines": "", "network": "St. Jaume", "operator": "EE BUS"}}, {"type": "Feature", "geometry": {"type": "Point", "coordinates": [1.54212, 42.51235]}, "properties": {"name": "St. Jaume", "lines": "", "network": "St. Jaume", "operator": "EE BUS"}}, {"type": "Feature", "geometry": {"type": "Point", "coordinates": [1.54224, 42.51239]}, "properties": {"name": "St. Jaume", "lines": "", "network": "St. Jaume", "operator": "EE BUS"}}, {"type": "Feature", "geometry": {"type": "Point", "coordinates": [1.54334, 42.51234]}, "properties": {"name": "Urb. Sa Calma", "lines": "", "network": "St. Jaume", "operator": "EE BUS"}}, {"type": "Feature", "geometry": {"type": "Point", "coordinates": [1.5434, 42.51325]}, "properties": {"name": "Urb. Guem i Comes de Guem", "lines": "", "network": "St. Jaume", "operator": "EE BUS"}}, {"type": "Feature", "geometry": {"type": "Point", "coordinates": [1.54339, 42.51317]}, "properties": {"name": "Urb. Guem i Comes de Guem", "lines": "", "network": "St. Jaume", "operator": "EE BUS"}}, {"type": "Feature", "geometry": {"type": "Point", "coordinates": [1.54191, 42.5135]}, "properties": {"name": "La Vinya", "lines": "", "network": "St. Jaume", "operator": "EE BUs"}}, {"type": "Feature", "geometry": {"type": "Point", "coordinates": [1.54199, 42.51353]}, "properties": {"name": "La Vinya", "lines": "", "network": "St. Jaume", "operator": "EE BUS"}}, {"type": "Feature", "geometry": {"type": "Point", "coordinates": [1.54181, 42.51413]}, "properties": {"name": "Cam\u00ed de Can Diumenge", "lines": "", "network": "St. Jaume", "operator": "EE BUS"}}, {"type": "Feature", "geometry": {"type": "Point", "coordinates": [1.54138, 42.51419]}, "properties": {"name": "Cam\u00ed de Can Diumenge", "lines": "", "network": "St. Jaume", "operator": "EE BUS"}}, {"type": "Feature", "geometry": {"type": "Point", "coordinates": [1.5433, 42.51445]}, "properties": {"name": "Ermengol Serrra", "lines": "", "network": "St. Jaume", "operator": "EE BUS"}}, {"type": "Feature", "geometry": {"type": "Point", "coordinates": [1.53597, 42.51001]}, "properties": {"name": "Provisional Consell de la Terra", "lines": "", "network": "L1, L2", "operator": "TRansports de Govern"}}, {"type": "Feature", "geometry": {"type": "Point", "coordinates": [1.53871, 42.5074]}, "properties": {"name": "Les Bo\u00efgues", "lines": "", "network": "Engolasters, L3, L4, L6", "operator": "EE BUS, Transports de Govern"}}, {"type": "Feature", "geometry": {"type": "Point", "coordinates": [1.5405, 42.51661]}, "properties": {"name": "Roca Corba", "lines": "", "network": "EE BUS Vilars", "operator": "EE BUS"}}, {"type": "Feature", "geometry": {"type": "Point", "coordinates": [1.53984, 42.51622]}, "properties": {"name": "La Devesa", "lines": "", "network": "EE BUS Vilars", "operator": "EE BUS"}}, {"type": "Feature", "geometry": {"type": "Point", "coordinates": [1.53969, 42.51628]}, "properties": {"name": "La Devesa", "lines": "", "network": "EE BUS Vilars", "operator": "EE BUS"}}, {"type": "Feature", "geometry": {"type": "Point", "coordinates": [1.53811, 42.51635]}, "properties": {"name": "Coll de Jou", "lines": "", "network": "EE BUS Vilars", "operator": "EE BUS"}}, {"type": "Feature", "geometry": {"type": "Point", "coordinates": [1.53814, 42.51642]}, "properties": {"name": "Coll de Jou", "lines": "", "network": "EE BUS Vilars", "operator": "EE BUS"}}, {"type": "Feature", "geometry": {"type": "Point", "coordinates": [1.53858, 42.51548]}, "properties": {"name": "Can Diumenge", "lines": "", "network": "EE BUS Vilars", "operator": "EE BUS"}}, {"type": "Feature", "geometry": {"type": "Point", "coordinates": [1.53606, 42.51636]}, "properties": {"name": "Costes dels Vilars", "lines": "", "network": "EE BUS Vilars", "operator": "EE BUS"}}, {"type": "Feature", "geometry": {"type": "Point", "coordinates": [1.536, 42.51632]}, "properties": {"name": "Costes dels Vilars", "lines": "", "network": "EE BUS Vilars", "operator": "EE BUS"}}, {"type": "Feature", "geometry": {"type": "Point", "coordinates": [1.53144, 42.5175]}, "properties": {"name": "Roc e la Grael", "lines": "", "network": "EE BUS Vilars", "operator": "EE BUS"}}, {"type": "Feature", "geometry": {"type": "Point", "coordinates": [1.53135, 42.51745]}, "properties": {"name": "Roc e la Grael", "lines": "", "network": "EE BUS Vilars", "operator": "EE BUS"}}, {"type": "Feature", "geometry": {"type": "Point", "coordinates": [1.53138, 42.51699]}, "properties": {"name": "Sant Rom\u00e0", "lines": "", "network": "EE BUS Vilars", "operator": "EE BUS"}}, {"type": "Feature", "geometry": {"type": "Point", "coordinates": [1.53143, 42.51703]}, "properties": {"name": "Sant Rom\u00e0", "lines": "", "network": "EE BUS Vilars", "operator": "EE BUS"}}, {"type": "Feature", "geometry": {"type": "Point", "coordinates": [1.52961, 42.5175]}, "properties": {"name": "Els Vilars", "lines": "", "network": "EE BUS Vilars", "operator": "EE BUS"}}, {"type": "Feature", "geometry": {"type": "Point", "coordinates": [1.52954, 42.51746]}, "properties": {"name": "Els Vilars", "lines": "", "network": "EE BUS Vilars", "operator": "EE BUS"}}, {"type": "Feature", "geometry": {"type": "Point", "coordinates": [1.532, 42.51564]}, "properties": {"name": "Prat de Roget\u00f3", "lines": "", "network": "EE BUS Vilars", "operator": "EE BUS"}}, {"type": "Feature", "geometry": {"type": "Point", "coordinates": [1.53193, 42.51561]}, "properties": {"name": "Prat de Roget\u00f3", "lines": "", "network": "EE BUS Vilars", "operator": "EE BUS"}}, {"type": "Feature", "geometry": {"type": "Point", "coordinates": [1.53306, 42.5146]}, "properties": {"name": "Teulades", "lines": "", "network": "EE BUS Vilars", "operator": "EE BUS"}}, {"type": "Feature", "geometry": {"type": "Point", "coordinates": [1.53298, 42.51456]}, "properties": {"name": "Teulades", "lines": "", "network": "EE BUS Vilars", "operator": "EE BUS"}}, {"type": "Feature", "geometry": {"type": "Point", "coordinates": [1.47423, 42.5448]}, "properties": {"name": "L'Espalmera", "lines": "", "network": "", "operator": ""}}, {"type": "Feature", "geometry": {"type": "Point", "coordinates": [1.47482, 42.54562]}, "properties": {"name": "Pal Poble", "lines": "", "network": "", "operator": ""}}, {"type": "Feature", "geometry": {"type": "Point", "coordinates": [1.47839, 42.54435]}, "properties": {"name": "Estacio de Pal", "lines": "", "network": "", "operator": ""}}, {"type": "Feature", "geometry": {"type": "Point", "coordinates": [1.48561, 42.54775]}, "properties": {"name": "El Mamo", "lines": "", "network": "", "operator": ""}}, {"type": "Feature", "geometry": {"type": "Point", "coordinates": [1.53595, 42.51262]}, "properties": {"name": "Escalls Bis", "lines": "", "network": "L5", "operator": "TRansport de Govern"}}]}