{"type":"FeatureCollection","features":[{"type":"Feature","geometry":{"type":"Point","coordinates":[1.41357993341654,42.5353460500337]},"properties":{"name":"Pic dels Llacs","altitude":2696,"refugi":"Refugi de la Coma Pedrosa"}},{"type":"Feature","geometry":{"type":"Point","coordinates":[1.41618863375832,42.541764065268]},"properties":{"name":"Pic de Setúria","altitude":2522,"refugi":"Refugi de la Coma Pedrosa"}},{"type":"Feature","geometry":{"type":"Point","coordinates":[1.42811275572287,42.5876421476655]},"properties":{"name":"Pic de Sanfons","altitude":2887,"refugi":"Refugi de la Coma Pedrosa"}},{"type":"Feature","geometry":{"type":"Point","coordinates":[1.43130871920373,42.4824403974007]},"properties":{"name":"Bony dels Llorers","altitude":2207,"refugi":"Refugi de Francolí"}},{"type":"Feature","geometry":{"type":"Point","coordinates":[1.44066132469888,42.463597617347]},"properties":{"name":"Bony de la Costa l'Arn","altitude":2048,"refugi":"Refugi de Francolí"}},{"type":"Feature","geometry":{"type":"Point","coordinates":[1.44196862463208,42.6037486336879]},"properties":{"name":"Pic de Medecorba","altitude":2913,"refugi":"Refugi del Pla de l'Estany"}},{"type":"Feature","geometry":{"type":"Point","coordinates":[1.44219730072541,42.5984250831752]},"properties":{"name":"Roca Entravessada","altitude":2927,"refugi":"Refugi del Pla de l'Estany"}},{"type":"Feature","geometry":{"type":"Point","coordinates":[1.44346865823341,42.5718954905424]},"properties":{"name":"Pic del Port Vell","altitude":2653,"refugi":"Refugi de la Coma Pedrosa"}},{"type":"Feature","geometry":{"type":"Point","coordinates":[1.44366765180799,42.5917764263512]},"properties":{"name":"Pic de Coma Pedrosa","altitude":2942,"refugi":"Refugi de la Coma Pedrosa; Refugi del Pla de l'Estany"}},{"type":"Feature","geometry":{"type":"Point","coordinates":[1.44413437724036,42.5671965375344]},"properties":{"name":"Pic de Port Negre","altitude":2569,"refugi":"Refugi de la Coma Pedrosa"}},{"type":"Feature","geometry":{"type":"Point","coordinates":[1.45319100219814,42.4481043859795]},"properties":{"name":"Pic del Cussol","altitude":1763,"refugi":"Refugi de Francolí"}},{"type":"Feature","geometry":{"type":"Point","coordinates":[1.45162290346784,42.6025957829927]},"properties":{"name":"Pic de Racofret","altitude":2837,"refugi":"Refugi del Pla de l'Estany"}},{"type":"Feature","geometry":{"type":"Point","coordinates":[1.45254785161806,42.5739301907152]},"properties":{"name":"Pic dels Aspres","altitude":2562,"refugi":"Refugi de la Coma Pedrosa"}},{"type":"Feature","geometry":{"type":"Point","coordinates":[1.45530658880693,42.5264653962208]},"properties":{"name":"Pic del Cubil","altitude":2356,"refugi":"Refugi de la Coma Pedrosa"}},{"type":"Feature","geometry":{"type":"Point","coordinates":[1.45948492583588,42.4642880102849]},"properties":{"name":"Roc del Castell","altitude":1942,"refugi":"Refugi de Francolí"}},{"type":"Feature","geometry":{"type":"Point","coordinates":[1.46031176963044,42.504519979611]},"properties":{"name":"Bony de la Pica","altitude":2402,"refugi":"Refugi de Francolí"}},{"type":"Feature","geometry":{"type":"Point","coordinates":[1.46411990063355,42.6067928178365]},"properties":{"name":"Pic del Pla de l'Estany","altitude":2859,"refugi":"Refugi del Pla de l'Estany"}},{"type":"Feature","geometry":{"type":"Point","coordinates":[1.46842398081058,42.5100019319059]},"properties":{"name":"Pic d'Enclar","altitude":2383,"refugi":"Refugi de Francolí"}},{"type":"Feature","geometry":{"type":"Point","coordinates":[1.46809372741147,42.6308819707216]},"properties":{"name":"Pic de Cabanyó","altitude":2729,"refugi":"Refugi de l'Angonella"}},{"type":"Feature","geometry":{"type":"Point","coordinates":[1.46997038814995,42.6354340848976]},"properties":{"name":"Pic de Caraussans","altitude":2679,"refugi":"Refugi de l'Angonella"}},{"type":"Feature","geometry":{"type":"Point","coordinates":[1.47734688360299,42.6149213687792]},"properties":{"name":"Pic de Cataperdís","altitude":2806,"refugi":"Refugi de l'Angonella"}},{"type":"Feature","geometry":{"type":"Point","coordinates":[1.47812696981142,42.6011204159662]},"properties":{"name":"Pic de les Fonts","altitude":2749,"refugi":"Refugi de l'Angonella; Refugi de les Fonts; Refugi del Pla de l'Estany"}},{"type":"Feature","geometry":{"type":"Point","coordinates":[1.4907656729908,42.6159512872129]},"properties":{"name":"Pic d'Arcalís","altitude":2776,"refugi":"Refugi de l'Angonella"}},{"type":"Feature","geometry":{"type":"Point","coordinates":[1.49380031882911,42.5143975989604]},"properties":{"name":"Pic de Carroi","altitude":2335,"refugi":"Refugi de Francolí"}},{"type":"Feature","geometry":{"type":"Point","coordinates":[1.49372025100165,42.6534064316303]},"properties":{"name":"Pic de Tristaina","altitude":2876,"refugi":"Refugi de l'Angonella"}},{"type":"Feature","geometry":{"type":"Point","coordinates":[1.49960419826907,42.645640471245]},"properties":{"name":"Pic de l'Arbella","altitude":2763,"refugi":"Refugi de l'Angonella; Refugi de Rialb"}},{"type":"Feature","geometry":{"type":"Point","coordinates":[1.50561348924561,42.4799704414841]},"properties":{"name":"L'Asparró","altitude":1667,"refugi":"Refugi de Prat Primer"}},{"type":"Feature","geometry":{"type":"Point","coordinates":[1.50510414741153,42.5689211876939]},"properties":{"name":"Pic del Solà d'Erts","altitude":1982,"refugi":"Refugi de les Fonts"}},{"type":"Feature","geometry":{"type":"Point","coordinates":[1.50662189361154,42.645226869411]},"properties":{"name":"Pic de les Planes","altitude":2787,"refugi":"Refugi de l'Angonella; Refugi de Rialb"}},{"type":"Feature","geometry":{"type":"Point","coordinates":[1.50908161338106,42.6192302767046]},"properties":{"name":"Pic de l'Hortell","altitude":2562,"refugi":"Refugi de l'Angonella"}},{"type":"Feature","geometry":{"type":"Point","coordinates":[1.51875044848099,42.6454186741356]},"properties":{"name":"Pic de les Fangasses","altitude":2684,"refugi":"Refugi de Rialb"}},{"type":"Feature","geometry":{"type":"Point","coordinates":[1.52162679476804,42.6131184741811]},"properties":{"name":"Pic de Brossós","altitude":2319,"refugi":"Refugi de Coma Obaga"}},{"type":"Feature","geometry":{"type":"Point","coordinates":[1.53386901260429,42.4345873481685]},"properties":{"name":"Roca de Pimes","altitude":2171,"refugi":"Refugi de Roca de Pimes"}},{"type":"Feature","geometry":{"type":"Point","coordinates":[1.53433270527581,42.6496664128342]},"properties":{"name":"Pic de Font Blanca","altitude":2904,"refugi":"Refugi de Rialb"}},{"type":"Feature","geometry":{"type":"Point","coordinates":[1.53782450814596,42.6383727517082]},"properties":{"name":"Pic de Besalí","altitude":2639,"refugi":"Refugi de Rialb: Refugi Borda de Sorteny"}},{"type":"Feature","geometry":{"type":"Point","coordinates":[1.53953214361083,42.5669795487514]},"properties":{"name":"Pic de Sorobilles","altitude":1839,"refugi":"Refugi de Coma Obaga"}},{"type":"Feature","geometry":{"type":"Point","coordinates":[1.54623035275552,42.5238344711287]},"properties":{"name":"Pic de Padern","altitude":1857,"refugi":"Refugi de Fontverd"}},{"type":"Feature","geometry":{"type":"Point","coordinates":[1.54843266377482,42.4913020645238]},"properties":{"name":"Picó","altitude":2112,"refugi":"Refugi de Prat Primer"}},{"type":"Feature","geometry":{"type":"Point","coordinates":[1.54921775066786,42.6558121763881]},"properties":{"name":"Pic de Rialb","altitude":2687,"refugi":"Refugi de Rialb"}},{"type":"Feature","geometry":{"type":"Point","coordinates":[1.56103385796991,42.4587051809988]},"properties":{"name":"Pic Negre","altitude":2642,"refugi":"Refugi de Claror"}},{"type":"Feature","geometry":{"type":"Point","coordinates":[1.56395068553348,42.5468080707429]},"properties":{"name":"Bony de les Neres","altitude":2211,"refugi":"Refugi de Riba Escorxada"}},{"type":"Feature","geometry":{"type":"Point","coordinates":[1.56543119941171,42.5845721638003]},"properties":{"name":"Pic de Casamanya","altitude":2740,"refugi":"Refugi de Coma Obaga"}},{"type":"Feature","geometry":{"type":"Point","coordinates":[1.56934358679715,42.4577459537023]},"properties":{"name":"Pic Negre d'Urgell","altitude":2700,"refugi":"Refugi de Claror"}},{"type":"Feature","geometry":{"type":"Point","coordinates":[1.57035728919573,42.5873603744624]},"properties":{"name":"Pic de Casamanya N","altitude":2752,"refugi":"Refugi de Coma Obaga"}},{"type":"Feature","geometry":{"type":"Point","coordinates":[1.57471731449005,42.6479190956709]},"properties":{"name":"Pic del Port de Siguer","altitude":2638,"refugi":"Refugi de Rialb"}},{"type":"Feature","geometry":{"type":"Point","coordinates":[1.58109821489585,42.4501435542378]},"properties":{"name":"Torre dels Soldats","altitude":2761,"refugi":"Refugi de Claror"}},{"type":"Feature","geometry":{"type":"Point","coordinates":[1.5854344802847,42.4591971029413]},"properties":{"name":"Pic de Monturull","altitude":2754,"refugi":"Refugi de Claror; Refugi de Perafita"}},{"type":"Feature","geometry":{"type":"Point","coordinates":[1.59259298732238,42.6087045726161]},"properties":{"name":"Pic de l'Estanyó","altitude":2915,"refugi":"Refugi Borda de Sorteny; Cabana de la Vall del Riu"}},{"type":"Feature","geometry":{"type":"Point","coordinates":[1.59886369474857,42.5024609749324]},"properties":{"name":"Tossa del Braibal","altitude":2658,"refugi":"Refugi de Fontverd; Refugi de les Agols"}},{"type":"Feature","geometry":{"type":"Point","coordinates":[1.60035120178595,42.4820734308929]},"properties":{"name":"Pic de la Maiana","altitude":2520,"refugi":"Refugi de Fontverd; Refugi de Perafita"}},{"type":"Feature","geometry":{"type":"Point","coordinates":[1.60377765147832,42.465793880274]},"properties":{"name":"Pic del Sirvent","altitude":2748,"refugi":"Refugi de Fontverd; Refugi de Perafita"}},{"type":"Feature","geometry":{"type":"Point","coordinates":[1.60312570047745,42.6255012824523]},"properties":{"name":"Pic de la Serrera","altitude":2912,"refugi":"Refugi de Cóms de Jan"}},{"type":"Feature","geometry":{"type":"Point","coordinates":[1.60725383313299,42.6135479607443]},"properties":{"name":"Pic de la Cabaneta","altitude":2862,"refugi":"Refugi de Cóms de Jan; Cabana de la Vall del Riu"}},{"type":"Feature","geometry":{"type":"Point","coordinates":[1.60994770651184,42.5439263471478]},"properties":{"name":"Cap de Rep","altitude":2317,"refugi":"Refugi de les Agols; Refugi de Riba Escorxada"}},{"type":"Feature","geometry":{"type":"Point","coordinates":[1.60936012942368,42.6285288942869]},"properties":{"name":"Pic de la Coma de Senyac","altitude":2853,"refugi":"Refugi de Cóms de Jan"}},{"type":"Feature","geometry":{"type":"Point","coordinates":[1.61226525581999,42.6108168015779]},"properties":{"name":"Pic de la Pala Rodona","altitude":2792,"refugi":"Cabana de la Vall del Riu; Refugi de Cóms de Jan"}},{"type":"Feature","geometry":{"type":"Point","coordinates":[1.61398031744943,42.5064215082486]},"properties":{"name":"Cap de la Coma dels Llops","altitude":2532,"refugi":"Refugi de les Agols"}},{"type":"Feature","geometry":{"type":"Point","coordinates":[1.61817526658785,42.6259767604033]},"properties":{"name":"Pic dels Meners","altitude":2713,"refugi":"Refugi de Cóms de Jan"}},{"type":"Feature","geometry":{"type":"Point","coordinates":[1.62048854188773,42.4654200200469]},"properties":{"name":"Pic dels Estanyons","altitude":2834,"refugi":"Refugi del Riu dels Orris"}},{"type":"Feature","geometry":{"type":"Point","coordinates":[1.62348058144226,42.4929346667584]},"properties":{"name":"Turó de l'Estany Blau","altitude":2636,"refugi":"Refugi del Riu dels Orris"}},{"type":"Feature","geometry":{"type":"Point","coordinates":[1.62453974691387,42.5939309261837]},"properties":{"name":"Pic de Torradella","altitude":2546,"refugi":"Cabana de la Vall del Riu"}},{"type":"Feature","geometry":{"type":"Point","coordinates":[1.62476203085962,42.6076123061455]},"properties":{"name":"Pic de la Pala Alta","altitude":2683,"refugi":"Cabana de la Vall del Riu"}},{"type":"Feature","geometry":{"type":"Point","coordinates":[1.62779524413713,42.552373709155]},"properties":{"name":"Pic dels Maians","altitude":2466,"refugi":"Refugi de Riba Escorxada"}},{"type":"Feature","geometry":{"type":"Point","coordinates":[1.62848317328889,42.6265978843769]},"properties":{"name":"Pic de l'Estany Mort","altitude":2746,"refugi":"Refugi de Cóms de Jan"}},{"type":"Feature","geometry":{"type":"Point","coordinates":[1.63191084126171,42.4881824435747]},"properties":{"name":"Pic del Pla de l'Ingla","altitude":2569,"refugi":"Refugi del Riu dels Orris"}},{"type":"Feature","geometry":{"type":"Point","coordinates":[1.63303865082289,42.5571254618543]},"properties":{"name":"Pic d'Encampadana","altitude":2491,"refugi":"Refugi de Riba Escorxada"}},{"type":"Feature","geometry":{"type":"Point","coordinates":[1.63613068551954,42.4681089305389]},"properties":{"name":"Pic de Coma Extremera","altitude":2808,"refugi":"Refugi del Riu dels Orris"}},{"type":"Feature","geometry":{"type":"Point","coordinates":[1.63596895382843,42.6299214754312]},"properties":{"name":"Pic del Mil Menut","altitude":2779,"refugi":"Refugi de Cóms de Jan"}},{"type":"Feature","geometry":{"type":"Point","coordinates":[1.64428952140231,42.6277256865458]},"properties":{"name":"Pic de la Pala de Jan","altitude":2774,"refugi":"Refugi de Cóms de Jan"}},{"type":"Feature","geometry":{"type":"Point","coordinates":[1.64583692001602,42.5485542200448]},"properties":{"name":"Tossal de la Llosada","altitude":2560,"refugi":"Refugi de Riba Escorxada; Refugi del Pla de les Pedres"}},{"type":"Feature","geometry":{"type":"Point","coordinates":[1.64939473657925,42.5049393755466]},"properties":{"name":"Pic dels Llops","altitude":2843,"refugi":"Refugi d'Ensagents; Refugi de l'Illa"}},{"type":"Feature","geometry":{"type":"Point","coordinates":[1.65123932709872,42.5251022434611]},"properties":{"name":"Alt del Griu","altitude":2876,"refugi":"Refugi d'Ensagents"}},{"type":"Feature","geometry":{"type":"Point","coordinates":[1.65338601144268,42.6263815984686]},"properties":{"name":"Pic de Ransol","altitude":2732,"refugi":"Refugi de Cóms de Jan"}},{"type":"Feature","geometry":{"type":"Point","coordinates":[1.65648746546304,42.4682236250826]},"properties":{"name":"Pic de la Portelleta","altitude":2905,"refugi":"Refugi del Riu dels Orris"}},{"type":"Feature","geometry":{"type":"Point","coordinates":[1.66016753125889,42.5202698780901]},"properties":{"name":"Pic d'Ensagents","altitude":2857,"refugi":"Refugi d'Ensagents"}},{"type":"Feature","geometry":{"type":"Point","coordinates":[1.66242806117458,42.474793936688]},"properties":{"name":"Tosseta de Vallcivera","altitude":2848,"refugi":"Refugi del Riu dels Orris; Refugi de l'Illa"}},{"type":"Feature","geometry":{"type":"Point","coordinates":[1.66473869917993,42.5081203797223]},"properties":{"name":"Pic dels Pessons","altitude":2864,"refugi":"Refugi de l'Illa; Refugi de Montmalús"}},{"type":"Feature","geometry":{"type":"Point","coordinates":[1.6703093124162,42.5277893847591]},"properties":{"name":"Pic Alt del Cubil","altitude":2833,"refugi":"Refugi del Pla de les Pedres"}},{"type":"Feature","geometry":{"type":"Point","coordinates":[1.67128539986083,42.5056937717526]},"properties":{"name":"Pic de Ríbuls","altitude":2820,"refugi":"Refugi de Montmalús"}},{"type":"Feature","geometry":{"type":"Point","coordinates":[1.68174346243496,42.6248900754178]},"properties":{"name":"Pic d'Anrodat","altitude":2729,"refugi":"Refugi de Cabana Sorda"}},{"type":"Feature","geometry":{"type":"Point","coordinates":[1.68653686052464,42.5089252079158]},"properties":{"name":"Pic de Montmalús","altitude":2782,"refugi":"Refugi de Montmalús"}},{"type":"Feature","geometry":{"type":"Point","coordinates":[1.69224780489108,42.6219722735817]},"properties":{"name":"Pic de Fontargent","altitude":2619,"refugi":"Refugi de Cabana Sorda"}},{"type":"Feature","geometry":{"type":"Point","coordinates":[1.70394735181969,42.5047417686689]},"properties":{"name":"Pic de la Portella dels Collels","altitude":2778,"refugi":"Refugi de Montmalús"}},{"type":"Feature","geometry":{"type":"Point","coordinates":[1.71907721787982,42.5539949466099]},"properties":{"name":"Pic del Maià","altitude":2615,"refugi":"Cabana de la Portella"}},{"type":"Feature","geometry":{"type":"Point","coordinates":[1.7214982963115,42.5172846321247]},"properties":{"name":"Pic d'Envalira","altitude":2827,"refugi":"Refugi del Pla de les Pedres"}},{"type":"Feature","geometry":{"type":"Point","coordinates":[1.72245971056875,42.5184599748001]},"properties":{"name":"Pic Negre d'Envalira","altitude":2821,"refugi":"Refugi del Pla de les Pedres"}},{"type":"Feature","geometry":{"type":"Point","coordinates":[1.72593162203632,42.6006265724001]},"properties":{"name":"Pic de Siscaró","altitude":2637,"refugi":"Refugi de Juclar"}},{"type":"Feature","geometry":{"type":"Point","coordinates":[1.73364647405503,42.5885639952639]},"properties":{"name":"Pic de la Cabaneta","altitude":2818,"refugi":"Cabana de Siscaró"}},{"type":"Feature","geometry":{"type":"Point","coordinates":[1.73559764748366,42.6092363449426]},"properties":{"name":"Pic d'Escobes","altitude":2781,"refugi":"Refugi de Juclar"}},{"type":"Feature","geometry":{"type":"Point","coordinates":[1.73995848257661,42.5877872792077]},"properties":{"name":"Pic del Roc Meler","altitude":2816,"refugi":"Cabana de la Portella"}},{"type":"Feature","geometry":{"type":"Point","coordinates":[1.78116416900562,42.582465700493]},"properties":{"name":"Cap de la Palomera","altitude":2148,"refugi":"Cabana de la Portella"}}]}